,id,title,latitude,longitude
0,50142908366,Singapore city skyline,1.285277,103.870833
1,50142273423,Singapore city skyline,1.289722,103.868055
2,50136052458,Kallang River,1.310144,103.870121
3,50098923711,Pasir Pajang Terminal seen from Labrador Nature Reserve in Singapore,1.265148,103.801971
4,50051051823,Singapore at night,1.288810,103.860197
5,49997132063,Marina Bay Singapore at Dawn,1.285234,103.855615
6,49925134061,Clear Sky,1.285154,103.856270
7,49747796573,Singapore,1.286761,103.854572
8,49733130478,A day trip to clear the mind,1.409352,103.991041
9,41980455215,"Skyline seen from the Waterfront Promenade at Night, Singapore",1.288832,103.856903
10,49598431568,Chinatown Bluehour,1.283657,103.843824
11,49595832031,"Twilight at Funan, Singapore",1.293096,103.852654
12,49482756052,Iconic Singapore sunset,1.287166,103.854199
13,49382646072,Singapore city skyline,1.288888,103.857222
14,49359867418,Supertree Grove at Gardens by the Bay,1.282472,103.861794
15,49276657112,Singapore city,1.288888,103.855555
16,49223695321,Singapore - Gardens by the bay east,1.289939,103.867986
17,48968251437,Singapore Merlion,1.286880,103.854457
18,48824574991,Singapore city skyline,1.285555,103.870833
19,48704701088,Business district modern building,1.291111,103.854166
20,48669601767,Singapore,1.288333,103.860555
21,48669309591,Singapore,1.287777,103.860555
22,48614441673,Singapore skyline at night,1.288888,103.855555
23,48614329423,Singapore skyline at night,1.288888,103.855555
24,48614328108,Singapore,1.288888,103.856944
25,48584399936,Red Singapore,1.289089,103.868511
26,48549869101,Colorful Singapore,1.288778,103.860025
27,48263451282,Aerial view of the Singapore landmark financial business district at sunset scene with skyscraper and beautiful sky. Singapore downtown,1.290819,103.867566
28,48193495242,Singapore city skyline,1.291111,103.854166
29,48193272281,Singapore city skyline,1.285000,103.858333
30,48174734106,Marina Bay Sands | Singapore,1.286847,103.854467
31,48166268636,Singapore city skyline,1.285555,103.870833
32,48165998626,Singapore city skyline,1.283888,103.871944
33,47947876098,Singapore city skyline,1.288830,103.856505
34,47947844006,Panorama aerial view of the Singapore landmark financial business district at sunset scene with skyscraper and beautiful sky. Singapore downtown,1.290819,103.867566
35,47947734778,All of Singapore,1.290819,103.867566
36,47947366447,Singapore city skyline,1.284902,103.858402
37,47789616992,Aerial view of the Singapore landmark financial business district at sunrise scene with skyscraper and over clouds. Panorama of Singapore downtown.,1.285844,103.871530
38,47790893291,"Waterfront, Sentosa Island, Singapore, 27 March 2019 (6)",1.256252,103.820630
39,40824588243,"Waterfront, Sentosa Island, Singapore, 27 March 2019 (5)",1.256772,103.820352
40,47738657392,"Waterfront, Sentosa Island, Singapore, 27 March 2019 (4)",1.256627,103.820625
41,47790883831,"Waterfront, Sentosa Island, Singapore, 27 March 2019 (3)",1.257116,103.821036
42,47001748644,"Waterfront, Sentosa Island, Singapore, 27 March 2019 (2)",1.256533,103.820822
43,47790880341,"Waterfront, Sentosa Island, Singapore, 27 March 2019 (1)",1.256533,103.820822
44,40712129643,Panorama aerial view of the Singapore landmark financial business district at sunrise scene with skyscraper and over clouds. Panorama of Singapore downtown.,1.285844,103.871530
45,33799836018,Aerial view of the Singapore landmark financial business district at twilight sunset scene with skyscraper and beautiful sky. Singapore downtown,1.285844,103.871530
46,47624295652,Summary of Singapore,1.285844,103.871530
47,46760990115,Panorama aerial view of the Singapore landmark financial business district at twilight sunset scene with skyscraper and beautiful sky. Singapore downtown,1.285844,103.871530
48,46690817945,"City of lights, Singapore",1.289003,103.854725
49,40523883073,Marina bay sands,1.288888,103.854999
50,46766482524,Marina bay sands,1.286199,103.854436
51,47356953351,Aerial view Singapore skyline,1.291111,103.854166
52,47186843342,Singapore a tiny but intriguing island,1.283816,103.858641
53,33312179648,Singapore aims to be the world's greenest city,1.282701,103.850176
54,33312658978,Boat Quay serves as one of the most popular places in Singapore,1.287802,103.849382
55,47185104551,The Financial hub overlooking the old Boat Quay of Singapore,1.288300,103.849478
56,33309184718,Samantha relaxing at Siloso beach in Singapore,1.254480,103.811949
57,46454394304,Samantha strolling along the soft sand and warm water of Siloso beach,1.252972,103.814599
58,46434418804,Samantha at a little deserted bounty beach on Sentosa island,1.254234,103.811906
59,33275121198,Samantha at the Siloso beach in Singapore,1.256851,103.811037
60,32192821597,The man-made Siloso beach in Singapore,1.255504,103.812839
61,47080639882,Juxtaposition of Singapore at Sentosa island,1.256347,103.813311
62,46934999332,Reflections at Keppel Bay is a true icon of modern architecture,1.267088,103.811294
63,47122626281,i Light Singapore - Bicentennial Edition | Singapore,1.286858,103.854553
64,33245580158,i Light Singapore - Bicentennial Edition | Singapore,1.289175,103.849253
65,46247125544,Lush jungle at the Henderson waves is broken up with  a true icon of modern architecture,1.276136,103.815436
66,46189290245,i Light Singapore - Bicentennial Edition | Singapore,1.289089,103.854317
67,32150927687,i Light Singapore - Bicentennial Edition | Singapore,1.288800,103.854618
68,46356929784,Singapore at the bay,1.288596,103.868640
69,39943622253,Mountaineers who were practicing in high trees on Mount Faber,1.272125,103.820189
70,46261545814,View from Mount Faber on Singapore,1.272687,103.819684
71,32016577677,Samantha walking on the quiet and unknown rooftop of Marina South Pier,1.284782,103.859242
72,46957199071,Inside Marina Bay Sands,1.283220,103.858909
73,46043052115,Blue Marina Bay Sands,1.282105,103.857514
74,32015959417,Interactive light attraction at Marina Bay Sands,1.285559,103.859982
75,46951622821,The awesome Marina Bay Sands Rain Oculus from the outside,1.283816,103.858641
76,46888149262,The awesome Marina Bay Sands Rain Oculus,1.283816,103.858641
77,46659314742,Admire the colonial façade of the the Victoria Theatre and Concert Hall,1.288225,103.851388
78,46169985954,Singapore high-rise financial district offices,1.284825,103.850626
79,46892245661,Singapore's fresco bar with altitude!,1.284825,103.850626
80,45977455185,Nightlife vibes at the 1 Altitude Bar in Singapore,1.284825,103.850626
81,45959551645,The Singapore Flyer at the Marina Bay,1.284771,103.865700
82,45897617395,Walking in the futuristic Supertree Grove,1.281864,103.863973
83,46107045154,Samantha in front of the Supertree Grove,1.282525,103.862235
84,32967500218,Cleaning the largest glass greenhouse in the world,1.284658,103.865175
85,32936476768,Singapore's extraordinary Gardens by the Bay,1.281864,103.863973
86,46759163842,Marina Bay Sands standing tall,1.282797,103.863351
87,39872875343,Singapore,1.288888,103.856944
88,46086365884,Skyway path through the Gardens by the Bay,1.281864,103.863973
89,32945425168,Aerial view Singapore skyline,1.291111,103.854166
90,45884500135,Supertree skywalk in Singapore,1.282025,103.864027
91,39815743703,Standing tall in the Supertree Grove,1.282025,103.864027
92,31783406667,Supertree Grove is a futuristic attraction with light show and sounds,1.282454,103.862761
93,45990301304,Marina Bay Sands Singapore and Gardens by the Bay at night,1.282486,103.862417
94,46744846721,Singapore's three main towers of Marina Bay Sands,1.282443,103.861763
95,31771000227,Singapore skyline at night and city reflections,1.288842,103.857922
96,32877352438,The Fullerton Bay Hotel,1.283966,103.853438
97,45943448794,Leisurely walk on Marina Bay waterfront,1.288772,103.854585
98,32837470208,Singapore ripples gets you easily into a state of meditation,1.288842,103.857922
99,45943110034,Strolling thru the Financial hub of Singapore,1.285421,103.850573
100,32761996668,Ready for a swim and lasershow at the YMCA,1.297621,103.848094
101,31694654757,Raining in Chinatown,1.280942,103.842204
102,31692000407,The Chinatown Heritage Centre of Singapore,1.283763,103.843824
103,39667764713,Singapore's China Town a  blend of old and new,1.283216,103.844779
104,45747420295,Aerial view of the Singapore landmark financial business distric,1.285844,103.871530
105,45747033865,Eye of Singapore,1.285844,103.871530
106,46609396492,Eye of Singapore,1.285844,103.871530
107,39696892073,Aerial view of the Singapore landmark financial business district at sunset scene with skyscraper and beautiful sky. Singapore downtown,1.285844,103.871530
108,32755158038,The National Museum of Singapore has been a prominent landmark,1.297734,103.848180
109,45888636344,MRT trains in Singapore are fully automated without driver!,1.357251,103.986174
110,45284784535,Singapore city skyline,1.289722,103.868055
111,45473018114,Singapore city skyline,1.289722,103.868055
112,44372011190,Singapore city skyline,1.285277,103.870833
113,32316876678,Singapore city skyline,1.287777,103.860555
114,43853117870,,1.286972,103.854577
115,43797196710,"Aerial view of Singapore business district and city at twilight in Singapore, Asia",1.291111,103.854166
116,43673178440,Singapore Skyline at Night,1.282327,103.856965
117,45264696191,"Singapore city skyline with fireworks, Singapore",1.291111,103.854166
118,30320102597,"Singapore city skyline, Singapore's business district, Singapore",1.291111,103.854166
119,44346486895,Singapore city skyline,1.283888,103.871944
120,43436456410,..Spectra..,1.286908,103.854378
121,44328073845,"Level 33, Singapore",1.279408,103.853600
122,29973114057,Aerial view of the Singapore landmark financial business district at sunrise scene with skyscraper and over clouds. Panorama of Singapore downtown.,1.285844,103.871530
123,43095736430,Aerial view of the Singapore landmark financial business district at sunrise scene with skyscraper and over clouds. Panorama of Singapore downtown.,1.285844,103.871530
124,42974409850,"Skyline seen from the Waterfront Promenade, Singapore",1.288896,103.855079
125,44803416091,the Marina Light,1.284863,103.858658
126,30806122678,Singapore & Lights,1.285152,103.853775
127,44616353952,CBD and a Select Few,1.288502,103.849880
128,30789864298,..I'm gonna get you..,1.286908,103.854378
129,30413502868,Aerial view of the Singapore landmark financial business district at sunrise scene with skyscraper. Singapore downtown,1.285844,103.871530
130,29212117387,"Singapore city skyline, Singapore's business district, Singapore",1.285277,103.861666
131,29183351847,Marina bay Singapore,1.288888,103.854999
132,30246850938,..golden tower..,1.288168,103.851340
133,29165111577,Boat Quay at moring hours,1.286027,103.850113
134,30235138818,Hotel Skyline with Suspension bridge,1.285702,103.851499
135,29165105127,Heritage Hotel Building,1.285744,103.851513
136,44002353822,Aerial view of the Singapore landmark financial business district at sunrise scene with skyscraper and over clouds. Singapore downtown,1.285844,103.871530
137,30182319868,Aerial view of the Singapore landmark financial business district at sunrise scene with skyscraper and over clouds. Panorama of Singapore downtown.,1.285844,103.871530
138,30082062358,Bayfront Promenade,1.280308,103.856005
139,30075945338,Singapore city skyline,1.285277,103.870833
140,43222844644,Singapore city skyline,1.288888,103.856944
141,43889955132,Colorful Singapore building and laser show,1.288888,103.855555
142,43024322755,"Marina Bay, Singapore",1.280798,103.856184
143,43751269552,"Sunset at Changi, Singapore",1.391644,103.975177
144,43737879392,Top view of the Singapore landmark. Singapore city downtown drone view.,1.285844,103.871530
145,41976896800,Aerial view of the Singapore landmark financial business district at twilight sunset scene with skyscraper and beautiful sky. Singapore downtown,1.285844,103.871530
146,43785318541,Aerial view of the Singapore landmark financial business district at twilight sunset scene with skyscraper and beautiful sky. Singapore downtown,1.285844,103.871530
147,41907547330,..modern dusk..,1.286908,103.854378
148,41802836680,Aerial view of the Singapore landmark financial business district at sunrise scene with skyscraper and over clouds. Panorama of Singapore downtown.,1.285844,103.871530
149,43603283741,"Esplanade bridge, Singapore",1.288005,103.854377
150,43534337602,Aerial view of the Singapore landmark financial business district at sunrise scene with skyscraper and over clouds. Singapore downtown,1.285844,103.871530
151,41772557110,Aerial view of the Singapore landmark financial business district at twilight sunset scene with skyscraper and beautiful sky. Singapore downtown,1.285844,103.871530
152,29661167908,..searchlights..,1.286908,103.854378
153,29082124578,..on guard..,1.286908,103.854378
154,42896042582,"Marina bay, Singapore",1.284852,103.853933
155,42868514992,"Singapore city skyline, Singapore's business district, Singapore",1.291111,103.854166
156,42859783912,"Singapore - June 18, 2018: View over the river showing Golden mile",1.300138,103.873433
157,42908266161,"Singapore - June 18, 2018: View of the water showing a condominium",1.299516,103.874366
158,42744601242,Singapore city skyline at night,1.283888,103.871944
159,28918003908,Singapore city skyline,1.287777,103.860555
160,42070452024,The Merlion fountain lit up at against the Singapore skyline,1.286944,103.854722
161,42646825192,..golden durian..,1.289358,103.855925
162,42520236351,..colorful skyline of Singapore..,1.285796,103.854180
163,41508918995,..golden halo covering the clock tower..,1.287922,103.854378
164,42180887541,Singapore city skyline at night,1.289722,103.868055
165,40360504880,"Singapore city skyline, Singapore's business district, Singapore",1.289166,103.855833
166,27290141447,"Building with reflection, Marina bay, Singapore city skyline",1.288888,103.857222
167,41260647775,"Colorful Singapore building and laser show, Singapore city skyline",1.288888,103.855555
168,41426938204,"Marina bay Singapore city skyline at dusk, Singapore",1.284852,103.853933
169,40254101420,..Spectra..,1.286908,103.854378
170,40061450950,Historical golden hour silhouettes..,1.290739,103.851547
171,41520327502,..lights up..,1.286908,103.854378
172,39741826950,Singapore city skyline,1.283888,103.871944
173,41541990491,Singapore Skyline Dusk,1.283404,103.857589
174,40797516644,The Merlion fountain,1.286944,103.854722
175,41301469942,Symphony of lasers and music,1.286944,103.859295
176,40584201034,City's Reflection,1.281124,103.855556
177,40245031105,"..classy, ellegant corner..",1.286279,103.852837
178,39276044000,"Cityscape of Singapore city in the daytime, Aerial view Singapore skyline",1.291111,103.854166
179,26049933137,Dusk in the city of lights..,1.286908,103.854378
180,38997862870,Cityscape of Singapore,1.290786,103.848647
181,40098497994,Cityscape of Singapore,1.290786,103.848647
182,40807563741,Cityscape of Singapore,1.288816,103.855277
183,26937633988,Cityscape of Singapore,1.288916,103.855186
184,25918449747,20171020-Canon EOS 750D-1495,1.286832,103.851388
185,40040984644,"..the sky boat in purple, handheld..",1.286656,103.854447
186,40656850681,..handheld and enjoying the show..,1.286908,103.854378
187,40375735032,"Business district modern building at dusk, Singapore city skyline",1.291111,103.854166
188,25547495837,"Singapore city skyline, Singapore's business district, Singapore",1.291111,103.854166
189,25541003897,Dawn at Merlion Park,1.286965,103.854435
190,26541417248,2018-02-22_merlion_park,1.286965,103.854435
191,40342220851,Singapore by night,1.290366,103.835070
192,25205520037,"Singapore city skyline, Singapore's business district, Singapore",1.291111,103.854166
193,38817571155,Singapore city skyline at night,1.289722,103.868055
194,39715134581,"Singapore city skyline at dusk, Singapore",1.285555,103.870833
195,24781686437,Singapore,1.285402,103.861088
196,39461367352,Singapore city skyline at dusk,1.285555,103.870833
197,39487392261,"Marina bay at dusk, Singapore city skyline",1.284852,103.853933
198,39404978161,Singapore city skyline,1.288888,103.854999
199,27565848399,The Merlion statue fountain and the Singapore skyline,1.286947,103.854647
200,24737384608,Singapore city skyline [IMG_2815],1.291111,103.854166
201,38487783856,Singapore,1.285402,103.861088
202,38467313156,City twilight,1.298507,103.870732
203,26722806079,"Fireworks at Marina bay Singapore, Singapore city skyline",1.288333,103.860555
204,37782205124,"Fireworks at Marina bay, Singapore city skyline",1.289722,103.868055
205,38482800891,Waterfront,1.397714,103.921748
206,38289226751,Singapore,1.283447,103.856506
207,37566912704,"Singapore central business district skyline at dusk, Singapore",1.285000,103.858333
208,38146680692,Where's the eagle?,1.443819,103.736214
209,12138799584,Dusk coming..,1.281860,103.856978
210,37445080264,Marina Bay,1.285291,103.855483
211,24063982188,Singapore city skyline at dusk,1.285277,103.870833
212,37586282191,Singapore city skyline,1.286944,103.854722
213,36915598673,Singapore city skyline,1.286944,103.854722
214,37584552001,Singapore,1.284852,103.853933
215,37432648802,Singapore city skyline,1.288333,103.860555
216,36591908814,"Singapore city skyline at dusk, Singapore",1.285000,103.858333
217,36904526750,Singapore city skyline,1.285555,103.870833
218,36853960540,"彩虹南橋和駁船碼頭, 夜景 l Rainbow South Bridge & Boat Quay at Dusk *Corners of Singapore*",1.289294,103.849532
219,36710627710,Shapes,1.281388,103.869831
220,37105835185,"ArtScience Museum, Singapore",1.287834,103.860808
221,36251925983,Cityscape of Marina Bay in Singapore,1.288022,103.854324
222,36251924773,Cityscape of Marina Bay in Singapore,1.287888,103.854377
223,36224594544,Cityscape of Marina Bay in Singapore,1.287863,103.854369
224,36220030004,Merlion,1.286944,103.854444
225,36146668893,Waterfront skyline,1.287523,103.853287
226,36953125885,Esplanade footbridge,1.287523,103.854382
227,36719783372,Singapore city skyline,1.285277,103.870833
228,36687355741,Singapore city skyline,1.291111,103.854166
229,35942421754,The plankway at Chek Jawa,1.409352,103.991041
230,36547008751,Singapore city skyline,1.288888,103.855555
231,35669109483,20170802-17-Singapore skyline,1.286533,103.849733
232,36292506932,"Keppel Bay, Singapore",1.263055,103.813333
233,35625498344,"Keppel Bay, Singapore",1.263055,103.813333
234,36415008196,"Keppel Bay, Singapore",1.263044,103.813311
235,35652763913,"Keppel Bay, Singapore",1.263055,103.813333
236,35567077984,Singapore city,1.289166,103.855833
237,36002453750,Singapore city skyline,1.289722,103.868055
238,36224808081,Singapore city skyline,1.289166,103.855833
239,36128043011,Celebration,1.289304,103.868329
240,35904914746,Singapore city skyline,1.287777,103.860555
241,34771824093,Singapore city skyline,1.291111,103.854166
242,18548606585,The essence of yellow..,1.284509,103.864724
243,19227832591,The glorious metropolis..,1.287604,103.860653
244,19511962432,Blue path to the luxury..,1.286279,103.852837
245,47677732151,All of Singapore,1.285844,103.871530
246,38913448510,Singapore WORKBOATS (1),1.262149,103.822452
247,38913446010,Singapore WORKBOATS (2),1.261602,103.821605
248,39159815735,Colourful Singapore,1.288797,103.855494
249,39634188182,"Marina Bay, Singapore",1.286938,103.854671
250,24554738000,Night river cruising..,1.287353,103.849470
251,25545053832,Shooting with moist lens :),1.284509,103.864724
252,34342902124,"Boat Quay, Singapore",1.286193,103.850433
253,34303807474,Singapore city skyline,1.288333,103.860555
254,34549694570,Singapore city skyline,1.285555,103.870833
255,34584946021,Singapore city skyline,1.291111,103.854166
256,34666027766,Singapore city skyline,1.291111,103.854166
257,34633934236,Singapore city skyline,1.285555,103.870833
258,34396010231,View of Marina Bay in Singapore,1.288861,103.855744
259,34396009841,View of Marina Bay in Singapore,1.288922,103.855422
260,34396009161,View of Marina Bay in Singapore,1.287852,103.854408
261,34096625370,Singapore city skyline,1.285277,103.870833
262,34438949806,Singapore city skyline,1.289166,103.855833
263,34092687690,Singapore,1.288258,103.860480
264,34286195761,Merlion,1.286888,103.854377
265,33533557544,ArtScience Museum in Singapore,1.287147,103.860502
266,33991062160,Marina. Bay. Sands.,1.287005,103.854499
267,13869499243,Sparkling backdrop..,1.286340,103.859502
268,17081691287,The windows..,1.285058,103.858630
269,17079280848,String of DNA in metal..,1.287604,103.860653
270,34021000852,Marina bay,1.288758,103.854672
271,34128606966,Aerial view Singapore skyline,1.291111,103.854166
272,33710473340,Blue Hour,1.288896,103.855841
273,33931746742,Singapore City Skyline at Dusk,1.284902,103.858402
274,33246341594,Singapore skyline at dawn,1.289722,103.868055
275,16030992504,Reaching for the blue hour sunset..,1.285058,103.858630
276,33656286430,Singapore city skyline,1.291111,103.854166
277,33961871066,Singapore Art Science Museum,1.286788,103.857886
278,33990832145,Singapore central financial district,1.288830,103.856505
279,33146863074,Singapore central financial district,1.288758,103.854672
280,33550823790,Singapore,1.261305,103.894194
281,33884296156,Business district modern building,1.291111,103.854166
282,33747914812,Singapore city skyline,1.285277,103.861666
283,16279531599,Air defense???,1.258455,103.819574
284,16065489459,Verticals and horizontals..,1.283883,103.859089
285,16250770362,Sailing with the golden sunset..,1.285058,103.858630
286,15886828840,Inside the curves..,1.283883,103.859089
287,33550686811,Singapore city skyline,1.286913,103.854786
288,33550612131,Singapore city skyline,1.286913,103.854786
289,33460456806,Aerial view Singapore skyline,1.291111,103.854166
290,33459774556,Aerial view Singapore skyline,1.291111,103.854166
291,15013212000,Creating the flow..,1.283190,103.859124
292,14465267606,Against the sparkling water..,1.286340,103.859502
293,33348026486,Marina Bay,1.288488,103.860819
294,12246647893,Colorful waters..,1.255889,103.820276
295,33332513456,Singapore - Marina Bay Sands Hotel,1.285990,103.854146
296,33373079585,Singapore - River waterfront lamp,1.285845,103.850873
297,32558744773,Singapore River waterfront 2,1.286553,103.849822
298,33370175795,Merlion fountain [IMG_2983],1.286944,103.854444
299,14372678355,Distorted underworld..,1.283611,103.859174
300,14371761154,Sky on my shiny hood..,1.283190,103.859124
301,12561167943,Golden skyline of Singapore..,1.286340,103.859502
302,32494305904,Singapore,1.288888,103.855555
303,12190666496,The City of Lights..,1.286279,103.852837
304,13170138173,The string of light..,1.287604,103.860653
305,12867142614,Marina Bay Sands & co..,1.288167,103.858995
306,12867017515,The flyer lit up..,1.286340,103.859502
307,33153291301,Singapore city skyline,1.285277,103.870833
308,33280797105,Singapore city skyline,1.285277,103.870833
309,33238487886,Singapore city skyline,1.285277,103.861666
310,12263023605,Alien Fortress in the middle of the forest?,1.276239,103.815232
311,33115721611,Hope in the Darkness,1.289304,103.868329
312,33242444295,Singapore city skyline,1.289722,103.868055
313,12246998636,It's Universal..,1.255836,103.821425
314,33180151146,Merlion fountain,1.286944,103.854444
315,32403566803,Singapore city skyline [IMG_2828],1.291111,103.854166
316,33207684005,Singapore city skyline,1.291111,103.854166
317,12247315486,Candy anyone?,1.256759,103.820700
318,12247245726,Kaboom!,1.256008,103.820230
319,14186143010,The iconic boat..,1.288167,103.858995
320,12263497785,"""Wavemaster 7""",1.260617,103.823281
321,12246499575,The setting sun above the cable cars..,1.260617,103.823281
322,32333124064,Singapore city skyline,1.291111,103.854166
323,32322451184,Modern buildings in Singapore Downtown,1.288869,103.855736
324,32779899700,Singapore city skyline,1.289722,103.868055
325,33004235922,Singapore city skyline,1.285277,103.870833
326,32777412130,Singapore city skyline,1.285277,103.870833
327,12190760853,"""Royal Albatross""",1.260617,103.823281
328,32867335592,The Merlion fountain,1.286944,103.854722
329,32552508490,Singapore city skyline,1.284852,103.853933
330,32043773553,The Fullerton Bay Hotel Singapore,1.282323,103.854356
331,32467696421,Changi Point Ferry Terminal,1.391157,103.987945
332,31590402093,Singapore,1.287777,103.860555
333,32305907086,The Merlion fountain,1.286944,103.854722
334,32339275575,Singapore city,1.288888,103.855555
335,32071447132,Marina bay,1.286880,103.854405
336,32080640065,Singapore Skyline Panorama,1.289068,103.859907
337,31678868692,30 - Nite Walkers,1.286268,103.859746
338,31741218675,Singapore city,1.288888,103.856944
339,30700482723,Financial District Singapore,1.285078,103.858780
340,31269073972,A City by the Light Divided...,1.281124,103.855556
341,31188488305,MBS Laser Show 2,1.286172,103.854231
342,31008964532,MBS Laser Show,1.286172,103.854231
343,30917907536,2 Suns,1.288858,103.856561
344,30270550883,Singapore city skyline,1.287777,103.860555
345,30823583106,The rustic allure of Pulau Ubin,1.402297,103.970394
346,30190275623,Singapore,1.288853,103.855926
347,30754862956,Contemplation,1.288853,103.855926
348,30636329742,Waterfront,1.286352,103.859172
349,30096361333,Singapore city skyline,1.284166,103.858611
350,30593336442,"Singapour ,quartier des affaires.",1.279200,103.857019
351,30673527486,"Singapour , Marina Bay Sands",1.288724,103.859658
352,30075867813,Singapour Marina Bay,1.287051,103.860388
353,30621826581,Singapore Gardens by the Bay,1.283640,103.864250
354,30593221902,Singapore Gardens by the Bay,1.282053,103.863607
355,30409718590,Singapore Gardens by the Bay,1.282353,103.863351
356,30593035542,Singapore Gardens by the Bay,1.284084,103.863412
357,30075552303,Singapore Lower Boardwalk - Marina Bay Sands,1.282696,103.857128
358,30077673094,"Singapour ,Marina Bay Sands quartier des affaires.",1.285800,103.859850
359,30621249751,"Singapour ,quartier des affaires.",1.287194,103.852339
360,30672882076,"Singapour ,quartier des affaires.",1.289382,103.849486
361,30069204793,Singapore city skyline,1.284047,103.853372
362,30685717905,Shot with iPhone 7 Plus,1.288844,103.855683
363,30464571851,Merlion and MBS,1.286833,103.854347
364,30411993542,Merlion fountain,1.286875,103.854452
365,29788765683,"Singapore city Skyline,",1.285277,103.861666
366,30198338146,Singapore city skyline,1.288922,103.855086
367,29238587593,Singapore city skyline,1.287777,103.860555
368,29780278171,Singapore city skyline,1.287777,103.860555
369,29852940025,Singapore city skyline,1.287777,103.860555
370,29679424712,Cityscape of business area of Singapore in the daytime,1.284800,103.860133
371,29389327222,The couple of the waterfront I,1.282975,103.858222
372,29439300486,Singapore skyline,1.284166,103.858611
373,29280798601,Early morning walk,1.321738,103.879730
374,28511157924,Urban landscape,1.282069,103.853827
375,28944659905,Merlion,1.286944,103.854444
376,28102400743,"Firework in 51SG festival, Marina bay Singapore, Singapore city skyline",1.287777,103.860555
377,28583725322,View across the Singapore River from the Raffles Landing Site,1.287427,103.850830
378,28017074743,Singapore Skyline Sunset,1.283876,103.857879
379,28294351320,Singapores skyline at a glance,1.282224,103.857085
380,27749703044,Lightshow on a bycicle,1.288900,103.857708
381,28245225731,"Skyline | Marina Bay, Singapore",1.281645,103.854532
382,28175039026,Life is a dream for the wise,1.288059,103.854081
383,27581836454,Sky's the limit,1.283790,103.858083
384,27575932644,View across the Singapore river at Boat Quay,1.288199,103.850213
385,28133742756,Sunset,1.303140,103.872213
386,27517475733,Lightshow at the Mandarina Bay Sands,1.286905,103.854697
387,27985337762,The famous Singapore Merlion,1.286905,103.854697
388,27976155241,Night view at Clark Quay,1.290152,103.845466
389,27495865570,Marina Bay Sands Light Show,1.288081,103.854446
390,27038606423,Rhapsody of the Cranes,1.412383,103.898005
391,26984980123,"View over to the Esplanade - Theatres on the Bay, Singapore",1.286905,103.854697
392,26924674933,Supertree,1.281708,103.861961
393,27488846136,Fiery Clouds,1.284842,103.859467
394,27485581046,Singapore,1.284166,103.858611
395,27287965356,"Aerial View of Singapore CBD Skyline, Marina Bay Esplanade and Raffles Place, Singapore",1.284091,103.859789
396,27135513461,"1981 Marina Bay At Dawn, Singapore",1.288855,103.857113
397,26327015503,Singapore,1.288888,103.856944
398,26856731371,Singapore city,1.288888,103.856944
399,26717875656,"White-Throated Kingfisher | Macritchie Reservoir, Singapore",1.347675,103.830746
400,26522243471,Singapore,1.288888,103.855555
401,25595269494,Laser show,1.287777,103.860555
402,25922728880,"Lighters at Boat Quay, Singapore. July 1976",1.286579,103.850862
403,25673758370,Laser show,1.288888,103.855555
404,25450231591,Marina Bay,1.284166,103.858611
405,25095488349,Singapore,1.286944,103.854722
406,24573129180,Sunrise on Marina Bay,1.282980,103.857543
407,24621181052,Marina bay sands,1.286111,103.854444
408,23976345224,Esplanade,1.288705,103.853627
409,23824367102,Marina Bay Sands by Night,1.282522,103.862555
410,23764457406,Steps,1.288832,103.853588
411,23758092515,Singapore city,1.288888,103.855555
412,23603858942,Marina bay,1.287777,103.860555
413,23671173915,Light to dark,1.287427,103.854081
414,23425721031,The helix bridge,1.287777,103.860555
415,22879732213,Marina bay,1.285277,103.861666
416,23470380696,Marina Bay and the Helix Bridge,1.288703,103.860229
417,22805353789,The Floating City - Monochrome,1.283018,103.858780
418,22526265894,Singapore   |   CBD,1.289111,103.855168
419,22668271729,Singapore Skyline,1.289049,103.856931
420,22508853468,Marina Bay Singapore,1.288703,103.858222
421,22913470631,Reflections @ Keppel Bay condo's,1.265835,103.809921
422,22834527656,Marina bay,1.284166,103.858611
423,22739889136,Marina Bay Boardwalk,1.282064,103.857032
424,21790633063,Pristine view of Bedok Reservoir,1.341925,103.926802
425,22048789098,Blue hour,1.287777,103.860555
426,21976736208,Urban waterfall,1.286306,103.858984
427,21977657939,Singapore - February 2015,1.287196,103.860958
428,21977654079,Singapore - February 2015,1.288601,103.860508
429,21976722398,Singapore - February 2015,1.285308,103.860851
430,21541730904,Singapore - February 2015,1.283538,103.860197
431,21977641679,Singapore - February 2015,1.286520,103.859585
432,21541721914,Singapore - February 2015,1.283538,103.860197
433,21976704928,Singapore - February 2015,1.285308,103.860851
434,21976699948,Singapore - February 2015,1.285308,103.860851
435,22164501455,Singapore - February 2015,1.285308,103.860851
436,22164494645,Singapore - February 2015,1.286520,103.859585
437,22164490415,Singapore - February 2015,1.286520,103.859585
438,21977606709,Singapore - February 2015,1.287464,103.860518
439,22174731501,Singapore - February 2015,1.284879,103.858770
440,22164472375,Singapore - February 2015,1.284879,103.858770
441,21543400213,Singapore - February 2015,1.286306,103.859360
442,22151840362,Singapore - February 2015,1.286306,103.859360
443,21976649968,Singapore - February 2015,1.286306,103.859360
444,21977573949,Singapore - February 2015,1.286306,103.859360
445,21977568049,Singapore - February 2015,1.286306,103.859360
446,22164442105,Singapore - February 2015,1.286306,103.859360
447,21976339450,Singapore - February 2015,1.286306,103.859360
448,22151810892,Singapore - February 2015,1.286306,103.859360
449,21543358833,Singapore - February 2015,1.286306,103.859360
450,21541627314,Singapore - February 2015,1.286306,103.859360
451,21543347163,Singapore - February 2015,1.286306,103.859360
452,22174663781,Singapore - February 2015,1.286306,103.859360
453,21543338733,Singapore - February 2015,1.287464,103.860518
454,21976593318,Singapore - February 2015,1.287464,103.860518
455,22174649081,Singapore - February 2015,1.285823,103.859070
456,21976293230,Singapore - February 2015,1.285823,103.859070
457,22151765152,Singapore - February 2015,1.285823,103.859070
458,22174629391,Singapore - February 2015,1.287464,103.860518
459,22151751952,Singapore - February 2015,1.287464,103.860518
460,22138196266,Singapore - February 2015,1.287464,103.860518
461,21543290763,Singapore - February 2015,1.288751,103.860722
462,22138185136,Singapore - February 2015,1.288751,103.860722
463,21543283803,Singapore - February 2015,1.288751,103.860722
464,21976248550,Singapore - February 2015,1.289212,103.860486
465,21977461789,Singapore - February 2015,1.289212,103.860486
466,22164333735,Singapore - February 2015,1.289212,103.860486
467,21977447219,Singapore - February 2015,1.289212,103.860486
468,21977437129,Singapore - February 2015,1.288006,103.860905
469,21541517564,Singapore - February 2015,1.288006,103.860905
470,21541513624,Singapore - February 2015,1.288006,103.860905
471,21977423939,Singapore - February 2015,1.288006,103.860905
472,22138128556,Singapore - February 2015,1.288006,103.860905
473,21541501714,Singapore - February 2015,1.288006,103.860905
474,22174541601,Singapore - February 2015,1.286676,103.860883
475,22151665492,Singapore - February 2015,1.286676,103.860883
476,21543214023,Singapore - February 2015,1.286676,103.860883
477,21977399659,Singapore - February 2015,1.286676,103.860883
478,21976176320,Singapore - February 2015,1.286676,103.860883
479,21976461828,Singapore - February 2015,1.286676,103.860883
480,21976168810,Singapore - February 2015,1.286676,103.860883
481,21543194373,Singapore - February 2015,1.286676,103.860883
482,22174511541,Singapore - February 2015,1.286676,103.860883
483,21543186473,Singapore - February 2015,1.286676,103.860883
484,21976154860,Singapore - February 2015,1.286676,103.860883
485,22151628382,Singapore - February 2015,1.286676,103.860883
486,21977363409,Singapore - February 2015,1.286676,103.860883
487,21541441954,Singapore - February 2015,1.286676,103.860883
488,21976134540,Singapore - February 2015,1.286075,103.860840
489,22138057376,Singapore - February 2015,1.284402,103.859467
490,21976123430,Singapore - February 2015,1.284402,103.859467
491,22138043256,Singapore - February 2015,1.284402,103.859467
492,21976401028,Singapore - February 2015,1.284402,103.859467
493,21541408594,Singapore - February 2015,1.284402,103.859467
494,22164200585,Singapore - February 2015,1.284402,103.859467
495,21543125863,Singapore - February 2015,1.284402,103.859467
496,21976090600,Singapore - February 2015,1.284402,103.859467
497,29177401412,..curving over the water..,1.286340,103.859502
498,14484994081,Mannequins come from out of nowhere..,1.283611,103.859174
499,14485025431,The durian on the roof..,1.289884,103.854950
500,21543113573,Singapore - February 2015,1.284402,103.859467
501,22164177445,Singapore - February 2015,1.284402,103.859467
502,21977293339,Singapore - February 2015,1.284402,103.859467
503,21977287969,Singapore - February 2015,1.284402,103.859467
504,22137990826,Singapore - February 2015,1.284402,103.859467
505,21976056390,Singapore - February 2015,1.284402,103.859467
506,21541353734,Singapore - February 2015,1.284402,103.859467
507,21976334728,Singapore - February 2015,1.284402,103.859467
508,22137967306,Singapore - February 2015,1.284402,103.859467
509,22137962576,Singapore - February 2015,1.284402,103.859467
510,22174377711,Singapore - February 2015,1.284402,103.859467
511,21543039243,Singapore - February 2015,1.284402,103.859467
512,21541303114,Singapore - February 2015,1.284402,103.859467
513,22151470142,Singapore - February 2015,1.284402,103.859467
514,22164083965,Singapore - February 2015,1.284402,103.859467
515,21977194659,Singapore - February 2015,1.284402,103.859467
516,22137897206,Singapore - February 2015,1.284402,103.859467
517,22174311421,Singapore - February 2015,1.284402,103.859467
518,21975952550,Singapore - February 2015,1.284402,103.859467
519,21542976833,Singapore - February 2015,1.284402,103.859467
520,21448966674,Red hour,1.284166,103.858611
521,21443737973,Marina Bay,1.285291,103.855483
522,22064882075,Marina Bay,1.285291,103.855483
523,21805306620,Singapore,1.288888,103.855555
524,21947791895,Illuminated,1.282954,103.853631
525,21316471064,A slow walk,1.391091,103.987502
526,21187742973,Singapore,1.284852,103.853933
527,21617963849,City never sleeps,1.278836,103.851194
528,21569120489,Walking into the sunset,1.391091,103.987502
529,21563161099,Singapore city,1.287777,103.860555
530,21586028635,Marina Bay Financial Centre,1.284641,103.851047
531,21474269626,Night to Remember,1.281366,103.856699
532,21272421340,City of Haze,1.284800,103.851044
533,20690966564,Reflection,1.284166,103.858611
534,21116877120,Singapore - February 2015,1.285689,103.853867
535,21116873270,Singapore - February 2015,1.287228,103.860540
536,21294343812,Singapore - February 2015,1.287228,103.860540
537,21294339792,Singapore - February 2015,1.287228,103.860540
538,20682271324,Singapore - February 2015,1.285689,103.853867
539,21116857500,Singapore - February 2015,1.285689,103.853867
540,20682262994,Singapore - February 2015,1.292420,103.860915
541,21118052389,Singapore - February 2015,1.285689,103.853867
542,20682256124,Singapore - February 2015,1.292420,103.860915
543,21117046948,Singapore - February 2015,1.285689,103.853867
544,21117042328,Singapore - February 2015,1.285689,103.853867
545,21304936885,Singapore - February 2015,1.281157,103.856549
546,21313074231,Singapore - February 2015,1.288601,103.860508
547,21304928895,Singapore - February 2015,1.283656,103.853513
548,21304923035,Singapore - February 2015,1.288601,103.860508
549,21278653596,Singapore - February 2015,1.287228,103.860540
550,21313056071,Singapore - February 2015,1.287228,103.860540
551,21313052191,Singapore - February 2015,1.287228,103.860540
552,21117009268,Singapore - February 2015,1.287228,103.860540
553,21117005488,Singapore - February 2015,1.287228,103.860540
554,21116798670,Singapore - February 2015,1.281833,103.857139
555,21116995318,Singapore - February 2015,1.281833,103.857139
556,21117990689,Singapore - February 2015,1.281833,103.857139
557,21304884455,Singapore - February 2015,1.281801,103.854596
558,20682189324,Singapore - February 2015,1.281801,103.854596
559,21304876815,Singapore - February 2015,1.281801,103.854596
560,20682181804,Singapore - February 2015,1.281801,103.854596
561,21278602696,Singapore - February 2015,1.281801,103.854596
562,21294239522,Singapore - February 2015,1.281801,103.854596
563,21313001671,Singapore - February 2015,1.281801,103.854596
564,21117959649,Singapore - February 2015,1.281801,103.854596
565,20682162484,Singapore - February 2015,1.281801,103.854596
566,21278584166,Singapore - February 2015,1.281801,103.854596
567,21312986081,Singapore - February 2015,1.281801,103.854596
568,21278577276,Singapore - February 2015,1.281801,103.854596
569,20682146874,Singapore - February 2015,1.281801,103.854596
570,21304836485,Singapore - February 2015,1.288601,103.860508
571,21278566526,Singapore - February 2015,1.281801,103.854596
572,21117930899,Singapore - February 2015,1.281801,103.854596
573,21304825125,Singapore - February 2015,1.282498,103.853684
574,21304822745,Singapore - February 2015,1.282498,103.853684
575,20682126934,Singapore - February 2015,1.282498,103.853684
576,21312954481,Singapore - February 2015,1.282498,103.853684
577,21312950551,Singapore - February 2015,1.283656,103.853513
578,21312945241,Singapore - February 2015,1.283656,103.853513
579,21312941041,Singapore - February 2015,1.288601,103.860508
580,21304800015,Singapore - February 2015,1.283656,103.853513
581,20683684793,Singapore - February 2015,1.283656,103.853513
582,21304791845,Singapore - February 2015,1.284632,103.853856
583,21278522356,Singapore - February 2015,1.284632,103.853856
584,21116684010,Singapore - February 2015,1.284632,103.853856
585,20683670643,Singapore - February 2015,1.284632,103.853856
586,21116676110,Singapore - February 2015,1.284632,103.853856
587,20683663593,Singapore - February 2015,1.285072,103.853856
588,20683661083,Singapore - February 2015,1.285072,103.853856
589,21116869198,Singapore - February 2015,1.285072,103.853856
590,21117866249,Singapore - February 2015,1.285072,103.853856
591,21294132262,Singapore - February 2015,1.285319,103.854027
592,21116656230,Singapore - February 2015,1.285319,103.854027
593,20682061164,Singapore - February 2015,1.285319,103.854027
594,21116648680,Singapore - February 2015,1.285319,103.854027
595,21294116542,Singapore - February 2015,1.285689,103.853867
596,21278475276,Singapore - February 2015,1.285689,103.853867
597,21278472106,Singapore - February 2015,1.285689,103.853867
598,21116836018,Singapore - February 2015,1.285689,103.853867
599,20683622173,Singapore - February 2015,1.285689,103.853867
600,21312864991,Singapore - February 2015,1.285689,103.853867
601,21116825488,Singapore - February 2015,1.285689,103.853867
602,21116822088,Singapore - February 2015,1.285689,103.853867
603,21278449636,Singapore - February 2015,1.285689,103.853867
604,21278445576,Singapore - February 2015,1.285689,103.853867
605,21312844941,Singapore - February 2015,1.285689,103.853867
606,21312840811,Singapore - February 2015,1.285689,103.853867
607,21304700945,Singapore - February 2015,1.285689,103.853867
608,21312834691,Singapore - February 2015,1.285689,103.853867
609,21312831331,Singapore - February 2015,1.285689,103.853867
610,21278423546,Singapore - February 2015,1.285689,103.853867
611,21117787239,Singapore - February 2015,1.285689,103.853867
612,20917771280,Singapore Flyer - The Planet Version,1.284194,103.866569
613,21083653511,The Planet of Singapore,1.286449,103.869972
614,21074013455,50SG,1.287777,103.860555
615,20806931558,Singapore skyline,1.284166,103.858611
616,20328398514,Marina bay sands,1.286111,103.854444
617,20940396972,Merlion,1.286944,103.854722
618,20753318628,Singapore city,1.287777,103.860555
619,20304020373,Marina bay,1.285277,103.861666
620,20301454864,Merlion,1.286944,103.854444
621,20734551980,Marina bay,1.284852,103.853933
622,20295525644,Marina bay sands,1.288888,103.855555
623,20923665731,Singapore city,1.288888,103.855555
624,20886428076,Marina bay,1.286944,103.854722
625,20711588709,Marina bay sands,1.287777,103.860555
626,20887836952,Marina bay sands,1.287777,103.860555
627,20275128033,Marina bay,1.286199,103.854436
628,20882828462,Marina bay,1.285277,103.861666
629,20704467678,Marina bay,1.284166,103.858611
630,20264810824,Merlion,1.286944,103.854444
631,20263999834,Marina bay sands,1.286199,103.854436
632,20824095445,Singapore at night,1.288948,103.859849
633,20424870118,SkySuites @ Anson | Singapore,1.274555,103.844500
634,20488225301,silky-smooth,1.370200,103.825777
635,20465933002,Dancing Lights,1.338063,103.928433
636,20260051320,~fireball~,1.340638,103.923969
637,19768331464,Sentosa Cove,1.242744,103.839638
638,20308059802,"That Weird ""Factory""",1.413819,103.897788
639,20128445158,Piecing Up Punggol,1.408877,103.894805
640,20308058522,Docked,1.416761,103.899138
641,20128444468,Blue,1.416766,103.899147
642,20290223886,Evening @ Punggol,1.417177,103.899527
643,19496431256,Singapore at Night,1.286449,103.869972
644,19461935436,Helix Bridge with Love,1.288316,103.860561
645,19452338482,Singapore from the Marina Bay Sands,1.284219,103.859617
646,18804269354,Fireworks - NDP Rehearsal,1.289013,103.868416
647,18803777704,Singapore Flyer with Fire,1.288691,103.868630
648,19192520259,Monochrome City,1.282254,103.856916
649,18517174558,The Merlion,1.286756,103.854533
650,18262270559,Changi Point Ferry Terminal,1.391157,103.987945
651,18288475455,Grey over Orange..,1.284863,103.860626
652,17365701664,Corner  一隅,1.286268,103.858759
653,17092904914,Marina Bay Sands and Flyer at night,1.282042,103.860068
654,24233290449,Glow  余晖,1.338976,103.728028
655,17390191985,Pretending to be a pro with the Sony Alpha 6000,1.289797,103.855733
656,17182681787,Pretending to be a pro with the Sony Alpha 6000,1.289797,103.855733
657,17202496310,Pretending to be a pro with the Sony Alpha 6000,1.289797,103.855733
658,16623135763,Parallel Dimensions,1.294377,103.864284
659,12263622296,The twin Fullertons..,1.282418,103.857193
660,14186072489,Eyes open wide..,1.286043,103.859703
661,14349611966,Under the watchful eyes of Merlion..,1.286804,103.854403
662,16882075127,Clarke Quay waterfront with long exposure,1.289797,103.845069
663,12263136383,"The colors, the crowd, the city, the lights and a bit of rain.. Perfect!",1.284313,103.858348
664,17074084535,Singapore Morning,1.288655,103.849880
665,12174669366,Cruise_Mode: On,1.283936,103.858800
666,12139852844,Night was inevitable..,1.286043,103.859704
667,15899581024,Next to UBS - the Sail @ Marina Bay with the Sunset,1.284864,103.860626
668,16522173915,Bankers' Sunset..,1.284864,103.860626
669,16277184208,The Signature of Singapore,1.286805,103.854403
670,16933294982,Spot the Merlion?,1.264265,103.818739
671,16729701466,Hotel Marina Bay Sands Singapur,1.282911,103.862557
672,16493228310,Chingay,1.293441,103.863747
673,16055137084,Good morning sunshine..,1.259528,103.823762
674,16596632982,Festivities by the Bay,1.289494,103.857800
675,16404904779,Festivities By The Bay,1.289455,103.857897
676,16387952650,Singapore-020100,1.284674,103.854069
677,16548379921,The Merlion Singapore,1.286637,103.854231
678,15909818844,Singapore,1.286694,103.854691
679,15900260104,Singapore,1.286963,103.854788
680,16486915282,Singapore,1.286949,103.854733
681,15842868603,Merlion at a colorful night,1.286869,103.854478
682,15840189354,Boat Quay Nightview,1.287995,103.850390
683,16429909566,The Marina Light Show,1.288778,103.859941
684,16252327930,INCH Chua,1.289706,103.855304
685,16175631206,tiokliaw and Singapore PM on 30thDecember 2014,1.286386,103.853909
686,15581664013,Singapore PM Lee Hsien Loong,1.286386,103.853909
687,16200665982,3D Projection on the Fullerton Hotel Singapore,1.286386,103.853909
688,16192207632,Spotlight,1.288864,103.857450
689,16192999635,Lighting,1.288864,103.857450
690,15808278227,"Looking to The Imbiah Lookout Tower, Resorts World and S.E.A Aquarium, Waterfront, Sentosa Island from Vivo City, Sentosa, Singapore",1.258048,103.821419
691,15981113472,AIDAaura Cruise Ship Docked in Singapore 13th January 2014,1.257930,103.822324
692,15795768799,"Singapore's S.E.A Aquarium, Waterfront, Sentosa Island, Singapore",1.257565,103.819824
693,15981776205,"Sentosa Resorts World Chinese New Year Candy Decorations, Sentosa Island, Singapore",1.257565,103.819824
694,15795767199,"Sentosa to Mt Faber Cable Car Tower, Sentosa Island, Singapore",1.257501,103.821678
695,15794491310,"Resorts World, The Forum, Sentosa Island, Singapore",1.257565,103.819824
696,15790199469,Esplanade,1.289605,103.856002
697,15789919027,Golden Cauldron,1.289569,103.855936
698,15718279248,Singapore City skyline at night,1.284112,103.860390
699,15892460681,Marina Bay Sands Waterfront Promenade,1.293779,103.852996
700,15658150829,Reminiscent,1.288891,103.857005
701,15154885493,Graduation!,1.400960,103.921909
702,15150529404,Punggol waterfront park,1.400960,103.921909
703,15746819805,Wonder Full Multimedia show at Marina Bay Sands,1.284112,103.860390
704,15608339171,Singapore-1417.jpg,1.286686,103.849489
705,12411060534,We Welcome You... Pt. Deux,1.286279,103.854253
706,14731516356,Portrait,1.283943,103.853867
707,14749820305,Portrait,1.283986,103.853813
708,14708369322,Victoria Theatre & Concert Hall | Singapore,1.288349,103.851732
709,14512491579,Victoria Theatre & Concert Hall | Singapore,1.288349,103.851732
710,14512383778,Victoria Theatre & Concert Hall | Singapore,1.288349,103.851732
711,14675202986,Victoria Theatre & Concert Hall | Singapore,1.288349,103.851732
712,14674325096,Victoria Theatre & Concert Hall | Singapore,1.288349,103.851732
713,14715191883,Victoria Theatre & Concert Hall | Singapore,1.288317,103.851517
714,14604503123,Singapore Marina Bay,1.286515,103.859660
715,14584373355,Singapore Marina Bay Sand,1.286515,103.859660
716,14581051411,Singapore Clarke Quay,1.289786,103.845616
717,14295763575,_DSC5235.jpg,1.287777,103.853611
718,14300654033,Waterfront seats,1.284949,103.853963
719,13265141075,The Pool,1.282213,103.856908
720,13262222164,Disco Pad,1.282213,103.856908
721,13239903824,iCroco,1.282213,103.856908
722,10487474103,Gentle Glow at Merlion 2,1.286279,103.854253
723,12132480804,IMG_2364,1.436941,103.773619
724,12132345803,IMG_2373,1.449472,103.772186
725,12132478184,IMG_2374,1.449472,103.772186
726,12132477974,IMG_2375,1.449472,103.772186
727,11963346185,新加坡，华灯初上,1.314300,103.854005
728,11496558395,Indochine Waterfront Restaurant - Singapour,1.287288,103.851250
729,11496516905,Indochine Waterfront Restaurant - Singapour,1.287288,103.851250
730,11495060044,Indochine Waterfront Restaurant - Singapour,1.287288,103.851250
731,11495025535,Indochine Waterfront Restaurant - Singapour,1.287288,103.851250
732,11495010625,Indochine Waterfront Restaurant - Singapour,1.287288,103.851250
733,11378330124,A New Dawn,1.283876,103.853728
734,11167482435,Sunrise at Jurong  waterfront boardwalks,1.341223,103.725936
735,11061632436,Marina Bay Sands Hotel from Esplanade roof,1.285657,103.860089
736,11061383863,Merlion Singapore,1.286965,103.854553
737,11061043495,Merlion Singapore,1.286965,103.854553
738,11061042785,Merlion Singapore,1.286965,103.854553
739,10056395135,Green Merlion,1.286279,103.854253
740,10247482973,Marina at Keppel Bay,1.264076,103.812442
741,10246154833,Night Bridge,1.299097,103.873758
742,10228019853,Perturbed Bay,1.284380,103.858410
743,10159249653,Marina at Keppel Bay,1.264076,103.812442
744,22021358211,Singapore,1.284166,103.858611
745,21089095101,Marina bay,1.284166,103.858611
746,20880688271,Singapore Financial District,1.284520,103.858351
747,20818909782,Singapore from the Marina Bay Sands,1.283741,103.859079
748,12263011335,The forces of Light..,1.284313,103.858348
749,16656901277,When the Nighlife of Singapore faded away..,1.289840,103.845005
750,10156227546,Reflections at Keppel Bay,1.264076,103.812442
751,9179990463,Gentle Glow at Merlion,1.286279,103.854253
752,9775900165,Singapore City Skyline at Night,1.284048,103.858491
753,9701992376,Merlion at night,1.286172,103.854146
754,9644956201,Famous Merlion statue,1.286172,103.854146
755,9644956251,Marina Bay waterfront at night,1.286172,103.854146
756,9648191404,Singapore skyline,1.286172,103.854146
757,9644955851,Reflection,1.286172,103.854146
758,9644955877,People watching the show,1.286172,103.854146
759,9644955731,Early morning at Marina Bay,1.286172,103.854146
760,9644955519,Merlion,1.286172,103.854146
761,9640926741,Ludicrous Vanity,1.284691,103.858636
762,9617282629,_DSC5245-Edit.jpg,1.287652,103.853647
763,9617280651,_DSC8821-Edit.jpg,1.287799,103.853741
764,9620516960,_DSC8816-Edit-Edit.jpg,1.287652,103.853647
765,9620514074,_DSC8815-Edit.jpg,1.287652,103.853647
766,9617270571,_DSC3872-Edit.jpg,1.287799,103.853741
767,9494284128,_DSC8822.jpg,1.287799,103.853741
768,9413139630,Reflections at Keppel Bay,1.263775,103.811284
769,9413139438,Panorama of the coast of Labrador Park with Reflections at Keppel Bay in the background,1.264591,103.806552
770,9182212201,Merlion ~ Dark,1.286279,103.854253
771,9085205249,Partgoers on a Hazy Evening,1.285583,103.858950
772,9001094763,Singapore my gateway to Southeast Asia!,1.286751,103.860540
773,8907251620,Long legs and tall buildings,1.282224,103.857407
774,8792093415,Monetary View,1.281752,103.857402
775,8801826500,Financial Stronghold,1.281645,103.856672
776,8782915711,Singapore Central Business District at Boat Quay,1.287781,103.849403
777,8724614651,Cold Singapore,1.287008,103.860111
778,8688147797,Sunrise in Singapore,1.407503,103.842859
779,8674748586,Sunset Over Singapore Skyline,1.288703,103.856277
780,8664780253,Storm is coming,1.449911,103.771737
781,8599127171,Red Bridge to Esplanade,1.286279,103.854253
782,8634231015,Marina Bay Laser Show,1.287781,103.859424
783,8613347906,IMG_8163,1.289754,103.846120
784,8612240681,IMG_8160,1.289754,103.846120
785,8612240071,IMG_8154,1.289754,103.846120
786,8612239679,IMG_8153,1.289754,103.846120
787,8613345764,IMG_8150,1.289754,103.846120
788,8613345208,IMG_8148,1.289754,103.846120
789,8613344696,IMG_8147,1.289754,103.846120
790,8612237167,IMG_8146,1.289754,103.846120
791,8612236293,IMG_8142,1.289754,103.846120
792,8612235307,IMG_8140,1.289754,103.846120
793,8613341410,IMG_8139,1.289754,103.846120
794,8497664972,Merlion of Singapore,1.287052,103.854594
795,8496562175,Singapore (622 of 874).jpg,1.288927,103.856733
796,8444142914,Clouds over Merlion,1.286279,103.854253
797,8387212852,Singapore Theatres,1.286758,103.854203
798,8356310797,Rocky Conquest,1.422379,103.910053
799,8353558563,Just a Jetty,1.421500,103.910418
800,8346586066,Sunset Flares,1.416652,103.903638
801,8332231488,New Year's Day fireworks,1.284059,103.859429
802,8332227100,Singapore evening skyline,1.284091,103.859505
803,8261689482,"Elevator | Gardens by the Bay, Singapore",1.282375,103.861881
804,8256217247,"Heritage Garden | Gardens by the Bay, Singapore",1.282911,103.866709
805,8256474460,"Buffalo | Gardens by the Bay, Singapore",1.282782,103.866838
806,8225408019,_DSC8822.jpg,1.287799,103.853741
807,8225039227,Stay Over at Marina Bay Sands - The Float@Marina (2012:092),1.286702,103.860316
808,8223710039,Stay Over at Marina Bay Sands- Central Business District at Night (2012:037),1.282755,103.857446
809,8191722275,Singapore Light Show,1.285120,103.854070
810,8191722239,Singapore_20120814_401b,1.281452,103.859864
811,8191722201,Singapore 2012 08 14,1.283265,103.860642
812,8168882922,Singapore (23 of 43).jpg,1.288682,103.853459
813,8168852301,Singapore (21 of 43).jpg,1.288682,103.853459
814,8168851661,Singapore (19 of 43).jpg,1.288682,103.853459
815,8163760757,Another shot of the Ship in the sky,1.276711,103.865432
816,8163730923,Esplanade bridge Singapore,1.286880,103.853952
817,8163713057,SINGAPORE-FEB 5: Marina Bay is also very popular for tourists.,1.286708,103.854339
818,8163731956,SINGAPORE-FEB 5: MARINA BAY 2012,1.286515,103.854339
819,8144853736,A view from Marina Bay Sands Boardwalk,1.286172,103.856592
820,8138820387,Singapore Skyline,1.286172,103.856592
821,8135102403,View of Singapore Financial District,1.286172,103.856592
822,8076400770,Golden One Fullerton,1.286279,103.854253
823,8009470025,Marina Bay Sand,1.280144,103.860806
824,7986027669,Singapore city skyline at night,1.285957,103.854369
825,7801900936,Classic Merlion,1.286279,103.854253
826,7801963140,We Welcome You...,1.286279,103.854253
827,7829024134,Sailing Boats,1.280701,103.855883
828,7829023280,Sailing Boats,1.280615,103.855798
829,7724807520,SINGAPORE-FEB 5: MARINA BAY 2012,1.286451,103.857107
830,7689517838,Separate Ways..,1.416534,103.913841
831,7682175152,Fish Away,1.421768,103.910729
832,7674044140,Cracked Earth,1.408382,103.916308
833,7667729444,Justified,1.406409,103.916459
834,7618746164,Customs House,1.282496,103.853874
835,7528136300,"Gardens by the Bay | Marina South, Singapore",1.283490,103.862010
836,7518454348,"Gardens by the Bay | Marina South, Singapore",1.284112,103.862267
837,7512500152,"Gardens by the Bay | Marina South, Singapore",1.284284,103.862460
838,7476836844,"Gardens by the Bay | Marina South, Singapore",1.284799,103.863877
839,7475874400,"Gardens by the Bay | Marina South, Singapore",1.284198,103.864091
840,7475758612,"Gardens by the Bay | Marina South, Singapore",1.284262,103.863919
841,7475679556,"Gardens by the Bay | Marina South, Singapore",1.283962,103.862246
842,7472109646,"Gardens by the Bay | Marina South, Singapore",1.284498,103.863297
843,7471509948,"Gardens by the Bay | Marina South, Singapore",1.283490,103.862160
844,7471429326,"Gardens by the Bay | Marina South, Singapore",1.284241,103.862525
845,7471122214,"Gardens by the Bay | Marina South, Singapore",1.284198,103.862611
846,7467442908,"Gardens by the Bay | Marina South, Singapore",1.284434,103.862911
847,7466708456,"Gardens by the Bay | Marina South, Singapore",1.285356,103.862911
848,7379422062,Blue Merlion,1.286279,103.854253
849,7183509293,Singapore 新加坡 - Marina Bay 滨海湾,1.283705,103.857986
850,7171645817,Marina Bay,1.282528,103.858973
851,7171362079,IMG_2219,1.288188,103.850669
852,7343966240,Singapore Marina Bay @ Night,1.282267,103.858995
853,7343955716,Singapore Flyer,1.290752,103.863480
854,7343955240,Singapore HelixBridge,1.289057,103.861248
855,7158747173,Singapore Marina Bay @ Night,1.282686,103.859081
856,7343952930,Singapore Marina Bay,1.285335,103.853802
857,7158743847,Singapore Marina Bay,1.289057,103.861248
858,7278093386,One Fullerton,1.286279,103.854253
859,7195228124,Singapore punggol waterfront park,1.414120,103.899593
860,7126114523,Scolding,1.303172,103.867835
861,6918403374,"Marina Bay panorama, Singapore",1.286113,103.854226
862,7023411953,Singapore,1.281570,103.857214
863,6812001980,Singapore Waterfront,1.290523,103.843832
864,6856184125,Waterfront Architectural Masterpiece,1.255908,103.822506
865,6856178357,Waterfront Architectural Masterpiece,1.255908,103.822506
866,6856155921,Marina Bay Panorama,1.283029,103.860411
867,6829869101,The Fullerton at Night,1.287158,103.853008
868,6573722527,The Fullerton Bay Hotel #4,1.283012,103.853277
869,6573722507,The Fullerton Bay Hotel #1,1.283516,103.853544
870,6411562103,Punggol Waterfront,1.406578,103.902618
871,6411560281,Shadows 1,1.406578,103.902618
872,6411558531,Shadows 2,1.406578,103.902618
873,6411556193,Punggol Waterfront,1.406578,103.902618
874,6411553873,Punggol Waterfront,1.405634,103.902125
875,6411551415,Punggol Waterfront,1.404467,103.901288
876,6411548527,Punggol Waterfront,1.404467,103.901288
877,6411545523,Punggol Waterfront,1.404467,103.901288
878,6411543013,Punggol Waterfront,1.404467,103.901288
879,6411540707,Punggol Waterfront,1.404467,103.901288
880,6411536767,Punggol Waterfront,1.404467,103.901288
881,6411534121,Punggol Waterfront,1.404467,103.901288
882,6411531931,Punggol Waterfront,1.404467,103.901288
883,6411529883,Fire Hydrant,1.406310,103.902243
884,6411527547,Punggol Waterfront,1.406310,103.902243
885,6411524945,Punggol Waterfront,1.406310,103.902243
886,6411521109,Road,1.406310,103.902243
887,6411518347,Road,1.406310,103.902243
888,6411515965,Punggol Waterfront,1.407361,103.903005
889,6411513989,Punggol Waterfront,1.407361,103.903005
890,6411509289,Punggol Waterfront,1.407361,103.903005
891,6411506593,Punggol Waterfront,1.407329,103.903959
892,6367367503,Cycling around Sembawang Park and Woodland Waterfront,1.450200,103.773416
893,6263093270,"Marina Bay Sands hotel and casino, Singapore",1.286494,103.854016
894,6248944597,"Shadow Puppetry | Maritime Experiential Museum & Aquarium, Sentosa Island",1.257216,103.821653
895,6248767435,"Artifact from Bakau Shipwreck | Maritime Experiential Museum & Aquarium, Sentosa Island",1.257216,103.821653
896,6249272852,"Persian Rugs | Maritime Experiential Museum & Aquarium, Sentosa Island",1.257522,103.821728
897,6249250502,"Coolie Artifact | Maritime Experiential Museum & Aquarium, Sentosa Island",1.257216,103.821653
898,6248693373,"Zheng He's Bao Chuan Treasure Ship | Maritime Experiential Museum & Aquarium, Sentosa Island",1.257216,103.821653
899,6248554257,"Trisha's 2nd Attempt | Maritime Experiential Museum & Aquarium, Sentosa Island",1.257216,103.821653
900,6249078000,"Trisha's First Attempt | Maritime Experiential Museum & Aquarium, Sentosa Island",1.257216,103.821653
901,6249065450,"Own Pottery Creation | Maritime Experiential Museum & Aquarium, Sentosa Island",1.257216,103.821653
902,6245254691,"Marina Bay Sands hotel and casino, Singapore",1.286430,103.859747
903,6245734388,"Marina Bay Sands hotel and casino, Singapore",1.288788,103.855388
904,6071731410,The Arts Science Museum at Marina,1.280658,103.861141
905,6035836722,The Fading Light,1.280905,103.857225
906,6032926819,Urban twilight,1.280401,103.856581
907,6029227928,The Waterfront,1.284418,103.858947
908,6029170268,The Marina Bay,1.288038,103.854875
909,5983676301,Singapore in the Reflection,1.286172,103.856592
910,5981285910,NDP 2011 Rehearsal Fireworks,1.286172,103.856592
911,5943520193,Marina Bay Sands,1.286172,103.856592
912,5940923499,"1238 Merlion Park at Marina Bay, Singapore",1.286011,103.854167
913,5918218215,1195 Nighttime in Singapore,1.289078,103.855487
914,5918777366,1182 Nighttime in Singapore,1.286579,103.854403
915,5918216109,1181 Nighttime in Singapore,1.286579,103.854403
916,5918214769,1173 Nighttime in Singapore,1.289754,103.862793
917,5918213651,1171 Nighttime in Singapore,1.289754,103.862793
918,5918212325,1170 Nighttime in Singapore,1.289754,103.862793
919,5918211079,1165 Nighttime in Singapore,1.284638,103.859574
920,5918209607,1162 Nighttime in Singapore,1.286579,103.854403
921,5918769074,1154 Nighttime in Singapore,1.288242,103.849468
922,5918767076,1152 Nighttime in Singapore,1.288242,103.849468
923,5918765154,1149 Nighttime in Singapore,1.289170,103.849350
924,5918763780,1146 Nighttime in Singapore,1.289170,103.849350
925,5918201621,1140 Nighttime in Singapore,1.289170,103.849350
926,5918200089,1137 Nighttime in Singapore,1.289170,103.849350
927,5918759180,1128 Nighttime in Singapore,1.289170,103.849350
928,5918757508,1115 Nighttime in Singapore,1.286735,103.852761
929,5918756018,1113 Nighttime in Singapore,1.286735,103.852761
930,5918193703,1108 Nighttime in Singapore,1.286735,103.852761
931,5918191909,"1097 The Fullerton Hotel, Nighttime in Singapore",1.286735,103.852761
932,5918751546,1090 Nighttime in Singapore,1.288542,103.853276
933,5918750456,1060 Nighttime in Singapore,1.288542,103.853276
934,5918187959,1048 Nighttime in Singapore,1.288542,103.853276
935,5918186299,1044 Nighttime in Singapore,1.289679,103.857450
936,5918184733,1041 Nighttime in Singapore,1.289679,103.857450
937,5918743622,1040 Nighttime in Singapore,1.289679,103.857450
938,5918181493,1033 Nighttime in Singapore,1.284638,103.859574
939,5918726490,0871 Singapore,1.284638,103.859574
940,5918164717,0851 Singapore,1.284638,103.859574
941,5918158983,"0827 Merlion Park at Marina Bay, Singapore",1.284638,103.859574
942,5918718196,"0686 Merlion Park at Marina Bay, Singapore",1.284638,103.859574
943,5918156149,"0676 Merlion Park at Marina Bay, Singapore",1.284638,103.859574
944,5918154917,"0662 Merlion Park at Marina Bay, Singapore",1.286579,103.854403
945,5895779255,"Friday Night Out, Riverside, Singapore",1.290180,103.835520
946,5877167617,Singapore,1.286424,103.854493
947,5869484821,Singapore CBD,1.286172,103.856592
948,5815009185,Esplanade Waterfront 1,1.287910,103.854103
949,5811999605,Esplanade Waterfront 2,1.287910,103.854103
950,5812503850,Esplanade Waterfront Pano,1.287910,103.854103
951,5777086026,"The Esplanade, Singapore",1.289529,103.855615
952,5773075007,403_1000482,1.287388,103.849274
953,5773610230,403_1000481,1.287019,103.849341
954,5773606842,403_1000480,1.286772,103.849433
955,5773603522,403_1000479,1.286563,103.849525
956,5773600136,403_1000478,1.286052,103.849922
957,5773597110,403_1000477,1.285966,103.850013
958,5773055453,403_1000476,1.285891,103.850197
959,5773590928,403_1000475,1.285861,103.850249
960,5773588394,403_1000474,1.285861,103.850249
961,5773585548,403_1000473,1.285861,103.850249
962,5773044267,403_1000473-pan,1.285861,103.850249
963,5773578296,403_1000472,1.285861,103.850249
964,5773037691,403_1000471,1.285861,103.850249
965,5762256186,"The Esplanade, Singapore",1.289411,103.855508
966,5720764927,SINGAPORE ESPLANADE Theater,1.288907,103.855326
967,5695780635,central business district,1.286080,103.858920
968,5645571265,central business district,1.288778,103.856023
969,5564247004,Clarke Quay,1.290523,103.843832
970,5559843021,The Footbridge,1.299429,103.874766
971,5559564085,Singapore's UOB Plaza 1 under construction in 1991,1.285568,103.850163
972,5559307471,Singapore - Boat Quay,1.288099,103.849422
973,5550470792,Benjamin Shears Bridge,1.288644,103.862149
974,5549553872,Singapore Waterfront - May 1991,1.289003,103.849768
975,5533650251,Marina Bay Sands,1.285718,103.854110
976,5513601021,Panoramic view of singapore skyine,1.281688,103.859081
977,5419641971,CBD,1.288606,103.857150
978,5411978054,marina bay sands + central business district,1.288456,103.863469
979,5356990425,Singapore Marina Bay Reservoir~滨海湾,1.281817,103.856635
980,5348409753,Aerial view of Resort World,1.254556,103.821412
981,5314634018,Reflections at Keppel Bay,1.266060,103.813891
982,5302570661,The Esplanade Theatres,1.289454,103.862042
983,5292042986,Esplanade Waterfront Theatre,1.288800,103.856034
984,5254656456,Sunflower.,1.289255,103.855175
985,5229813721,Musical Performance,1.288853,103.856120
986,5225077157,Marina barrage,1.281205,103.873028
987,5148246616,marina bay sands,1.282085,103.854564
988,5115666079,Marina Bay Waterfront,1.282160,103.857439
989,5103140745,Esplanade Outdoor Theatre,1.288746,103.856098
990,5100980466,Esplanade Powerhouse Stage,1.289443,103.856334
991,5100980450,Street Jazz (Kids) #2,1.289507,103.856377
992,5100980458,Street Jazz (Kids) #3,1.289411,103.856463
993,5100980442,Street Jazz (Kids) #1,1.289550,103.856527
994,5100980462,Street Jazz (Kids) #4,1.289411,103.856399
995,5087967488,Positive Attracts,1.281586,103.857182
996,5087967516,A Blue Mirage in the City of Lights,1.282230,103.857600
997,5087967500,Lumenocity,1.282181,103.857461
998,4981487931,The Merlion by Night,1.303124,103.868072
999,8691765971,The Durians,1.286172,103.856592
1000,4930870281,Singapore YOG closing ceremony firework :MBS:,1.283158,103.859574
1001,4846355929,marina bay sands,1.285893,103.854274
1002,4299566212,...another Singapore Merlion Shot,1.286472,103.854349
1003,4233362185,"New Year 2010 Fireworks, Singapore",1.365579,103.827713
1004,4233355687,"New Year 2010 Fireworks, Singapore",1.365579,103.827713
1005,4233348269,"New Year 2010 Fireworks, Singapore",1.365579,103.827713
1006,4233308639,"New Year 2010 Fireworks, Singapore",1.365579,103.827713
1007,4233306913,"New Year 2010 Fireworks, Singapore",1.365579,103.827713
1008,4231908946,Happy New Year 2010! {Explore},1.365579,103.827713
1009,3619667543,The Esplanade,1.289507,103.855293
1010,3620415334,Marina Bay 2,1.286579,103.852713
1011,3536167322,Merlion,1.294849,103.854467
1012,3311669004,The Esplanade HDR Trial,1.287638,103.854255
1013,2674799714,Sunset in Changi Beach Park_0191,1.392691,103.986539
1014,2046689899,Merlion Park - Singapore,1.285920,103.854006
1015,4943094671,Waterfront Promenade,1.279940,103.856184
1016,4915077815,Singapore YOG :CLOSING CEREMONY FIREWORK: MBS,1.288639,103.859081
1017,4852775605,"August 3, 2010",1.289465,103.844844
1018,4789962259,"Belly Dancer at Shiraz Cafe, Singapore",1.290537,103.846442
1019,4785918209,"The Street Musician, Singapore Riverside",1.290569,103.842387
1020,4763593554,Yoohoo !,1.291991,103.834539
1021,4748801065,DSC02911,1.298825,103.875591
1022,4748800141,DSC02910,1.292844,103.854411
1023,4749440762,DSC02908,1.292844,103.854411
1024,4748798675,DSC02907,1.292844,103.854411
1025,4748797889,DSC02906,1.292844,103.854411
1026,4749438276,Waterfront,1.292844,103.854411
1027,4748796341,DSC02904,1.292844,103.854411
1028,4748795485,DSC02903,1.292844,103.854411
1029,4748794389,DSC02902,1.292844,103.854411
1030,4748793521,DSC02901,1.292844,103.854411
1031,4748792569,DSC02900,1.292844,103.854411
1032,4748791759,DSC02899,1.292844,103.854411
1033,4748790821,星洲河粉,1.292844,103.854411
1034,4749430994,DSC02896,1.292844,103.854411
1035,4749430034,Thanks for Ashley,1.292844,103.854411
1036,4749429070,Crab,1.292844,103.854411
1037,4732863121,"Top view of The Helix Bridge from SkyPark,MBS ~ cars",1.286579,103.861527
1038,4732863103,"Hi Friends,enjoy your weekends!",1.284874,103.860057
1039,4730120055,SkyPark @MBS,1.285566,103.860529
1040,4730120013,Pictureque,1.285056,103.860239
1041,4730120033,Benjamin Shears Bridge & The S'pore Flyer,1.285743,103.861227
1042,4730120027,Lift higher Up please!,1.285228,103.860079
1043,4730515818,MBS - SkyPark open today,1.285957,103.860218
1044,4730515816,MBS - SkyPark @55 storey open today,1.285137,103.860111
1045,4730515798,MBS - SkyPark @55 storey,1.285281,103.860561
1046,4590830990,Central Business District,1.287352,103.860626
1047,4590025073,Clarke Quay 1,1.289776,103.844135
1048,4590643958,Marina Bay Sunset,1.289089,103.856205
1049,4454990268,City of Waves: VivoCity - Spiral Staircase,1.264591,103.821659
1050,4454165879,City of Waves: VivoCity - Front Entrance,1.264591,103.821659
1051,4454157933,City of Waves: VivoCity - Central Atrium,1.264591,103.821659
1052,4454152341,City of Waves: VivoCity - Sky Garden Walkway,1.264591,103.821659
1053,4384926306,The much loved and photographed Merlion,1.286601,103.854274
1054,4312909714,Siloso Beach,1.255430,103.811960
1055,4305272544,Singapore Waterfront,1.288832,103.855701
1056,4237104537,singapore waterfront,1.285710,103.850723
1057,4237874076,singapore waterfront,1.285710,103.850723
1058,4237083011,singapore waterfront,1.285710,103.850723
1059,4128357636,Marina Bay Waterfront in HDR,1.286172,103.853298
1060,3997725641,Kaleidoscope,1.287009,103.854650
1061,3959966330,"Indochine Waterfront Restaurant, Singapore",1.287142,103.851603
1062,3959966146,"Indochine Waterfront Restaurant, Singapore",1.287142,103.851603
1063,3959194203,"Indochine Waterfront Restaurant, Singapore",1.287142,103.851603
1064,3959965822,Drink at Indochine Waterfront Restaurant Singapore,1.287142,103.851603
1065,3959193945,Drink at Indochine Waterfront Restaurant Singapore,1.287142,103.851603
1066,3959965612,Drink at Indochine Waterfront Restaurant Singapore,1.287142,103.851603
1067,3959965490,Indochine Waterfront Restaurant Singapore,1.287142,103.851603
1068,3786363403,Pulau Ubin,1.402639,103.970221
1069,3764505494,Night over the Singapore River,1.285855,103.850852
1070,3736120322,Under the bridge,1.286397,103.851903
1071,3677601785,The Esplanade Theatres (The Durian) - Singapore,1.289277,103.855862
1072,3552595527,Merlion at night,1.294849,103.854467
1073,3542425324,Merlions,1.294849,103.854467
1074,3538303015,Safetygoat on the Singapore Flyer,1.294849,103.854467
1075,3461485039,Sunrise over Keppel Harbour,1.272356,103.808248
1076,3408380048,Esplanade Waterfront,1.288982,103.856232
1077,3280928878,Happy Miniature Sunday!,1.287150,103.849648
1078,3132081083,blue sky Vs Singapore River,1.286408,103.851088
1079,3091747400,veiled gibbous moon,1.305763,103.866097
1080,3053522190,The waterfront,1.287150,103.849648
1081,3027004648,Vivocity's Waterfront,1.263405,103.822023
1082,3027004400,Vivocity's Sky Garden at Dusk,1.263405,103.822023
1083,3003401583,Singapore Waterfront,1.288751,103.857793
1084,2949819670,Bridge in Red,1.286123,103.852332
1085,2949816356,Abstract Reflections,1.287469,103.852922
1086,2948756704,Colorful Cavenagh Bridge,1.286751,103.852107
1087,2947878249,Fountain Spread (Merlion),1.285887,103.854188
1088,2946297397,Merlion at Night,1.285946,103.854210
1089,2662735873,Higher,1.289027,103.856444
1090,2663558606,Empty Office,1.289027,103.856444
1091,2662732261,Teamwork,1.289027,103.856444
1092,2663555152,Construction,1.289027,103.856444
1093,2662728717,Rocket?,1.289027,103.856444
1094,2663551762,Manual Settings,1.289027,103.856444
1095,2662725073,Auto Settings,1.289027,103.856444
1096,2663547372,Floating Platform,1.289003,103.856860
1097,2662721167,On The Waterfront,1.289027,103.856444
1098,2663543734,Seats,1.289027,103.856444
1099,2395233423,Straits of Singapore in action,1.283071,103.790893
1100,2344854281,waterfront at dusk,1.287593,103.852804
1101,2046690401,Marina Bay - Singapore,1.284080,103.852719
1102,1441344837,Esplanade Roof,1.289636,103.855605
1103,1442179872,Merlion,1.286375,103.854253
1104,1442179854,On Esplanade Bridge,1.288553,103.854317
1105,1442179866,Symmetry,1.287008,103.853867
1106,1442179848,Tourists @ Merlion Park,1.286493,103.854682
1107,1442179882,Lamp,1.287266,103.853073
1108,262353431,Esplanade in Enhanced Color,1.287518,103.854188
